{"meta":{"code":200},"notifications":[{"type":"notificationTray","item":{"unreadCount":0}}],"response":{"venues":[{"id":"50f69da590e728f2108bbbbf","name":"ХаХаХа ИмПро Театър","contact":{"twitter":"hahahaimpro","facebook":"260076110056"},"location":{"address":"ул. Цар Иван Асен II 11","lat":42.690266704026236,"lng":23.340561389923096,"distance":1184,"postalCode":"1527","cc":"BG","city":"София","country":"България"},"categories":[{"id":"4bf58dd8d48988d137941735","name":"Theater","pluralName":"Theaters","shortName":"Theater","icon":{"prefix":"https:\/\/ss1.4sqi.net\/img\/categories_v2\/arts_entertainment\/performingarts_theater_","suffix":".png"},"primary":true}],"verified":true,"stats":{"checkinsCount":42,"usersCount":23,"tipCount":3},"url":"http:\/\/www.facebook.com\/hahahaimpro","events":{"count":1,"summary":"ХаХаХа ИмПро #128","items":[{"id":"52e0e4f311d205779e673e16","name":"ХаХаХа ИмПро #128","categories":[],"startAt":1391450400,"endAt":1391457600,"allDay":false,"timeZone":"Europe\/Sofia","text":"","images":[],"stats":{"checkinsCount":8,"usersCount":8}}]},"hereNow":{"count":13,"groups":[{"type":"others","name":"Other people here","count":13,"items":[]}]},"venuePage":{"id":"76886234"}},{"id":"4dbc27c3fa8cee727344779b","name":"KANAAL","contact":{"phone":"0882856346","formattedPhone":"088 285 6346","twitter":"kanaalbg","facebook":"202919073054625"},"location":{"address":"бул. Мадрид 2","lat":42.69593648936457,"lng":23.347363471984863,"distance":1722,"postalCode":"1504","cc":"BG","city":"София","country":"България"},"categories":[{"id":"4bf58dd8d48988d117941735","name":"Beer Garden","pluralName":"Beer Gardens","shortName":"Beer Garden","icon":{"prefix":"https:\/\/ss1.4sqi.net\/img\/categories_v2\/nightlife\/beergarden_","suffix":".png"},"primary":true}],"verified":true,"stats":{"checkinsCount":4831,"usersCount":1359,"tipCount":37},"url":"http:\/\/www.kanaal.bg","hereNow":{"count":9,"groups":[{"type":"others","name":"Other people here","count":9,"items":[]}]},"venuePage":{"id":"33758734"},"storeId":""},{"id":"4d52f7419ffc236a40b532a7","name":"Studio 5","contact":{"phone":"029631254","formattedPhone":"02 963 1254"},"location":{"address":"пл. България 1","crossStreet":"НДК, вход А3","lat":42.6845132505718,"lng":23.3181299551578,"distance":1190,"postalCode":"1000","cc":"BG","city":"София","country":"България"},"categories":[{"id":"4bf58dd8d48988d1e7931735","name":"Jazz Club","pluralName":"Jazz Clubs","shortName":"Jazz Club","icon":{"prefix":"https:\/\/ss1.4sqi.net\/img\/categories_v2\/arts_entertainment\/musicvenue_jazzclub_","suffix":".png"},"primary":true}],"verified":true,"stats":{"checkinsCount":2190,"usersCount":1242,"tipCount":25},"url":"http:\/\/clubstudio5.com","hereNow":{"count":7,"groups":[{"type":"others","name":"Other people here","count":7,"items":[]}]},"venuePage":{"id":"43078416"},"storeId":""},{"id":"4bc831130050b7134df3b93b","name":"Тънка червена линия (Thin Red Line)","contact":{"phone":"0885193362","formattedPhone":"088 519 3362"},"location":{"address":"ул. Партений Нишавски 42","crossStreet":"ул. Българска морава","lat":42.69694735325072,"lng":23.305264925561726,"distance":1798,"postalCode":"1000","cc":"BG","city":"София","country":"България"},"categories":[{"id":"4bf58dd8d48988d116941735","name":"Bar","pluralName":"Bars","shortName":"Bar","icon":{"prefix":"https:\/\/ss1.4sqi.net\/img\/categories_v2\/nightlife\/bar_","suffix":".png"},"primary":true}],"verified":false,"stats":{"checkinsCount":3541,"usersCount":1095,"tipCount":23},"hereNow":{"count":6,"groups":[{"type":"others","name":"Other people here","count":6,"items":[]}]}},{"id":"4bbe258f5ce0d13af9afdf57","name":"One More Bar","contact":{"phone":"0877693735","formattedPhone":"087 769 3735","twitter":"onemorebarbg","facebook":"148762805173847"},"location":{"address":"12 Tsar Ivan Shishman St.","crossStreet":"at Slavyanska St.","lat":42.692482,"lng":23.33092,"distance":358,"postalCode":"1000","cc":"BG","city":"София","country":"България"},"categories":[{"id":"4bf58dd8d48988d116941735","name":"Bar","pluralName":"Bars","shortName":"Bar","icon":{"prefix":"https:\/\/ss1.4sqi.net\/img\/categories_v2\/nightlife\/bar_","suffix":".png"},"primary":true}],"verified":true,"stats":{"checkinsCount":10573,"usersCount":3141,"tipCount":105},"hereNow":{"count":6,"groups":[{"type":"others","name":"Other people here","count":6,"items":[]}]},"venuePage":{"id":"33147891"},"storeId":""},{"id":"4c8a6a5a2e333704d06fc341","name":"Пасторант (Pastorant)","contact":{"phone":"0887026190","formattedPhone":"088 702 6190"},"location":{"address":"ул. Цар Асен 16","crossStreet":"ул. Кърниградска","lat":42.69328992243097,"lng":23.319100241877166,"distance":616,"postalCode":"1000","cc":"BG","city":"София","country":"България"},"categories":[{"id":"4bf58dd8d48988d110941735","name":"Italian Restaurant","pluralName":"Italian Restaurants","shortName":"Italian","icon":{"prefix":"https:\/\/ss1.4sqi.net\/img\/categories_v2\/food\/italian_","suffix":".png"},"primary":true}],"verified":true,"stats":{"checkinsCount":980,"usersCount":523,"tipCount":39},"url":"http:\/\/pastorant.eu","hereNow":{"count":5,"groups":[{"type":"others","name":"Other people here","count":5,"items":[]}]},"venuePage":{"id":"66416850"},"storeId":""},{"id":"4ba003fef964a5207e5237e3","name":"Халбите (Halbite)","contact":{"phone":"029542015","formattedPhone":"02 954 2015"},"location":{"address":"бул. Прага 18","crossStreet":"ул. Шандор Петьофи","lat":42.68843712180847,"lng":23.31225335597992,"distance":1290,"postalCode":"1606","cc":"BG","city":"София","country":"България"},"categories":[{"id":"4bf58dd8d48988d11b941735","name":"Pub","pluralName":"Pubs","shortName":"Pub","icon":{"prefix":"https:\/\/ss1.4sqi.net\/img\/categories_v2\/nightlife\/pub_","suffix":".png"},"primary":true}],"verified":true,"stats":{"checkinsCount":2402,"usersCount":1005,"tipCount":38},"url":"http:\/\/www.halbite.com","hereNow":{"count":5,"groups":[{"type":"others","name":"Other people here","count":5,"items":[]}]}},{"id":"4d5ee4dae4fe5481364c6d9e","name":"Mixtape 5","contact":{"phone":"0888231613","formattedPhone":"088 823 1613"},"location":{"address":"бул. Евлоги Георгиев 1","crossStreet":"ул. Фритьоф Нансен, в подлеза зад НДК","lat":42.683184347761404,"lng":23.320858720583015,"distance":1209,"postalCode":"1000","cc":"BG","city":"София","country":"България"},"categories":[{"id":"4bf58dd8d48988d11f941735","name":"Nightclub","pluralName":"Nightclubs","shortName":"Nightclub","icon":{"prefix":"https:\/\/ss1.4sqi.net\/img\/categories_v2\/nightlife\/nightclub_","suffix":".png"},"primary":true}],"verified":false,"stats":{"checkinsCount":6554,"usersCount":2219,"tipCount":48},"url":"http:\/\/mixtape5.com","hereNow":{"count":5,"groups":[{"type":"others","name":"Other people here","count":5,"items":[]}]}},{"id":"4c1b93ce8b3aa593fc61975f","name":"Happy Bar & Grill","contact":{"phone":"0888181070","formattedPhone":"088 818 1070","facebook":"307729762647"},"location":{"address":"пл. Света Неделя 4","crossStreet":"бул. Витоша","lat":42.69658702272911,"lng":23.32049310207367,"distance":629,"postalCode":"1000","cc":"BG","city":"София","country":"България"},"categories":[{"id":"4bf58dd8d48988d1c4941735","name":"Restaurant","pluralName":"Restaurants","shortName":"Restaurant","icon":{"prefix":"https:\/\/ss1.4sqi.net\/img\/categories_v2\/food\/default_","suffix":".png"},"primary":true}],"verified":true,"stats":{"checkinsCount":7819,"usersCount":4159,"tipCount":102},"url":"http:\/\/happy.bg","hereNow":{"count":5,"groups":[{"type":"others","name":"Other people here","count":5,"items":[]}]}}]}}